  "type": "FeatureCollection",
  "features": [
    {
      "type": "Feature",
      "geometry": {
        "type": "Point",
        "coordinates": [
          -122.4072433,
          47.5779877
        ]
      },
      "properties": {
        "name": "Alki Playground",
        "formatted_address": "5817 Southwest Lander Street, Seattle, WA 98116, USA",
        "courts": "Basketball Half Court #1\nBasketball Half Court #2"
      }
    },
    {
      "type": "Feature",
      "geometry": {
        "type": "Point",
        "coordinates": [
          -122.349894,
          47.6552998
        ]
      },
      "properties": {
        "name": "B.F. Day Playground",
        "formatted_address": "4020 Fremont Ave N, Seattle, WA 98103, USA",
        "courts": "Basketball Full Court #1\nBasketball Half Court #1"
      }
    },
    {
      "type": "Feature",
      "geometry": {
        "type": "Point",
        "coordinates": [
          -122.3875973,
          47.6444971
        ]
      },
      "properties": {
        "name": "Bayview Playground",
        "formatted_address": "2614 24th Ave W, Seattle, WA 98199, USA",
        "courts": "Basketball Half Court #1"
      }
    },
    {
      "type": "Feature",
      "geometry": {
        "type": "Point",
        "coordinates": [
          -122.3159778,
          47.5859821
        ]
      },
      "properties": {
        "name": "Beacon Hill Playground",
        "formatted_address": "1902 13th Ave S, Seattle, WA 98144, USA",
        "courts": "Basketball Half Court #1\nBasketball Half Court #2"
      }
    },
    {
      "type": "Feature",
      "geometry": {
        "type": "Point",
        "coordinates": [
          -122.2848271,
          47.5194365
        ]
      },
      "properties": {
        "name": "Benefit Playground",
        "formatted_address": "9320 38th Ave S, Seattle, WA 98118, USA",
        "courts": "Basketball Full Court #1\nBasketball Half Court #1\nBasketball Half Court #2\nBasketball Half Court #3"
      }
    },
    {
      "type": "Feature",
      "geometry": {
        "type": "Point",
        "coordinates": [
          -122.2829706,
          47.5487546
        ]
      },
      "properties": {
        "name": "Brighton Playfield",
        "formatted_address": "6000 39th Ave S, Seattle, WA 98118, USA",
        "courts": "Basketball Full Court #1\nBasketball Half Court #1\nBasketball Half Court #2"
      }
    },
    {
      "type": "Feature",
      "geometry": {
        "type": "Point",
        "coordinates": [
          -122.283984,
          47.6757735
        ]
      },
      "properties": {
        "name": "Bryant Neighborhood Playground",
        "formatted_address": "4103 Northeast 65th Street, Seattle, WA 98115, USA",
        "courts": "Basketball Half Court #1\nBasketball Half Court #2"
      }
    },
    {
      "type": "Feature",
      "geometry": {
        "type": "Point",
        "coordinates": [
          -122.2800995,
          47.6676315
        ]
      },
      "properties": {
        "name": "Burke-Gilman Playground Park",
        "formatted_address": "5201 Sand Point Way Northeast, Seattle, WA 98105, USA",
        "courts": "Basketball Half Court #1"
      }
    },
    {
      "type": "Feature",
      "geometry": {
        "type": "Point",
        "coordinates": [
          -122.3317336,
          47.6217813
        ]
      },
      "properties": {
        "name": "Cascade Playground",
        "formatted_address": "333 Pontius Ave N, Seattle, WA 98109, USA",
        "courts": "Basketball Half Court #1"
      }
    },
    {
      "type": "Feature",
      "geometry": {
        "type": "Point",
        "coordinates": [
          -122.3187738,
          47.6594585
        ]
      },
      "properties": {
        "name": "Christie Park",
        "formatted_address": "9th Avenue Northeast & NE 43rd St, Seattle, WA 98105, USA",
        "courts": "Basketball Half Court #1"
      }
    },
    {
      "type": "Feature",
      "geometry": {
        "type": "Point",
        "coordinates": [
          -122.30257,
          47.5877766
        ]
      },
      "properties": {
        "name": "Colman Playground",
        "formatted_address": "1740 23rd Ave S, Seattle, WA 98144, USA",
        "courts": "Basketball Half Court #1\nBasketball Half Court #2"
      }
    },
    {
      "type": "Feature",
      "geometry": {
        "type": "Point",
        "coordinates": [
          -122.3121938,
          47.672283
        ]
      },
      "properties": {
        "name": "Cowen Park",
        "formatted_address": "5849 15th Ave NE, Seattle, WA 98115, USA",
        "courts": "Basketball Full Court #1"
      }
    },
    {
      "type": "Feature",
      "geometry": {
        "type": "Point",
        "coordinates": [
          -122.3007454,
          47.685691
        ]
      },
      "properties": {
        "name": "Dahl (Waldo J.) Playfield",
        "formatted_address": "7700 25th Ave NE, Seattle, WA 98115, USA",
        "courts": "Basketball Half Court #1"
      }
    },
    {
      "type": "Feature",
      "geometry": {
        "type": "Point",
        "coordinates": [
          -122.3633336,
          47.5630649
        ]
      },
      "properties": {
        "name": "Delridge Playfield",
        "formatted_address": "4458 Delridge Way SW, Seattle, WA 98106, USA",
        "courts": "Basketball Full Court #1"
      }
    },
    {
      "type": "Feature",
      "geometry": {
        "type": "Point",
        "coordinates": [
          -122.3397763,
          47.6185437
        ]
      },
      "properties": {
        "name": "Denny Playfield",
        "formatted_address": "Denny Way & 9th Ave N, Seattle, WA 98109, USA",
        "courts": "Basketball Full Court #1"
      }
    },
    {
      "type": "Feature",
      "geometry": {
        "type": "Point",
        "coordinates": [
          -122.412125,
          47.657457
        ]
      },
      "properties": {
        "name": "Discovery Park",
        "formatted_address": "3801 Discovery Park Blvd, Seattle, WA 98199, USA",
        "courts": "Basketball Full Court #1"
      }
    },
    {
      "type": "Feature",
      "geometry": {
        "type": "Point",
        "coordinates": [
          -122.3685537,
          47.5337012
        ]
      },
      "properties": {
        "name": "E.C. Hughes Playground",
        "formatted_address": "2805 Southwest Holden Street, Seattle, WA 98126, USA",
        "courts": "Basketball Half Court #1"
      }
    },
    {
      "type": "Feature",
      "geometry": {
        "type": "Point",
        "coordinates": [
          -122.3540074,
          47.6361537
        ]
      },
      "properties": {
        "name": "East Queen Anne Playground",
        "formatted_address": "1912 Warren Ave N, Seattle, WA 98109, USA",
        "courts": "Basketball Half Court #1"
      }
    },
    {
      "type": "Feature",
      "geometry": {
        "type": "Point",
        "coordinates": [
          -122.2962296,
          47.599218
        ]
      },
      "properties": {
        "name": "Flo Ware Park",
        "formatted_address": "S Jackson St & 28th Ave S, Seattle, WA 98144, USA",
        "courts": "Basketball Half Court #1"
      }
    },
    {
      "type": "Feature",
      "geometry": {
        "type": "Point",
        "coordinates": [
          -122.3230594,
          47.5515115
        ]
      },
      "properties": {
        "name": "Georgetown Playfield",
        "formatted_address": "750 S Homer St, Seattle, WA 98108, USA",
        "courts": "Basketball Half Court #1\nBasketball Half Court #2"
      }
    },
    {
      "type": "Feature",
      "geometry": {
        "type": "Point",
        "coordinates": [
          -122.3688575,
          47.6678789
        ]
      },
      "properties": {
        "name": "Gilman Playground",
        "formatted_address": "923 NW 54th St, Seattle, WA 98107, USA",
        "courts": "Basketball Half Court #1\nBasketball Half Court #2"
      }
    },
    {
      "type": "Feature",
      "geometry": {
        "type": "Point",
        "coordinates": [
          -122.4039299,
          47.6917719
        ]
      },
      "properties": {
        "name": "Golden Gardens Park",
        "formatted_address": "8498 Seaview Pl NW, Seattle, WA 98117, USA",
        "courts": "Basketball Half Court #1"
      }
    },
    {
      "type": "Feature",
      "geometry": {
        "type": "Point",
        "coordinates": [
          -122.3281102,
          47.6798964
        ]
      },
      "properties": {
        "name": "Green Lake Park",
        "formatted_address": "7201 East Green Lake Dr N, Seattle, WA 98115, USA",
        "courts": "Basketball Full Court #1"
      }
    },
    {
      "type": "Feature",
      "geometry": {
        "type": "Point",
        "coordinates": [
          -122.3865981,
          47.5792822
        ]
      },
      "properties": {
        "name": "Hiawatha Playfield",
        "formatted_address": "2700 California Ave SW, Seattle, WA 98116, USA",
        "courts": "Basketball Half Court #1"
      }
    },
    {
      "type": "Feature",
      "geometry": {
        "type": "Point",
        "coordinates": [
          -122.2593746,
          47.5133723
        ]
      },
      "properties": {
        "name": "Hutchinson Playground",
        "formatted_address": "59th Ave S & S Norfolk St, Seattle, WA 98118, USA",
        "courts": "Basketball Full Court #1"
      }
    },
    {
      "type": "Feature",
      "geometry": {
        "type": "Point",
        "coordinates": [
          -122.3074806,
          47.5696419
        ]
      },
      "properties": {
        "name": "Jefferson Park",
        "formatted_address": "3801 Beacon Ave S, Seattle, WA 98108, USA",
        "courts": "Basketball Full Court #1"
      }
    },
    {
      "type": "Feature",
      "geometry": {
        "type": "Point",
        "coordinates": [
          -122.2862393,
          47.5399322
        ]
      },
      "properties": {
        "name": "John C. Little, Sr. Park",
        "formatted_address": "6961 37th Ave S, Seattle, WA 98118, USA",
        "courts": "Basketball Full Court #1\nBasketball Full Court #2\nBasketball Half Court #1\nBasketball Half Court #2"
      }
    },
    {
      "type": "Feature",
      "geometry": {
        "type": "Point",
        "coordinates": [
          -122.3036227,
          47.5930353
        ]
      },
      "properties": {
        "name": "Judkins Park and Playfield",
        "formatted_address": "2150 S Norman St, Seattle, WA 98144, USA",
        "courts": "Basketball Full Court #1\nBasketball Full Court #2"
      }
    },
    {
      "type": "Feature",
      "geometry": {
        "type": "Point",
        "coordinates": [
          -122.3599122,
          47.6294868
        ]
      },
      "properties": {
        "name": "Kerry Park (Franklin Place)",
        "formatted_address": "211 W Highland Dr, Seattle, WA 98119, USA",
        "courts": "Basketball Half Court #1"
      }
    },
    {
      "type": "Feature",
      "geometry": {
        "type": "Point",
        "coordinates": [
          -122.246843,
          47.510317
        ]
      },
      "properties": {
        "name": "Lakeridge Playground",
        "formatted_address": "10145 Rainier Ave S, Seattle, WA 98178, USA",
        "courts": "Basketball Full Court #1"
      }
    },
    {
      "type": "Feature",
      "geometry": {
        "type": "Point",
        "coordinates": [
          -122.3828242,
          47.6846564
        ]
      },
      "properties": {
        "name": "Loyal Heights Playfield",
        "formatted_address": "2101 Northwest 77th Street, Seattle, WA 98117, USA",
        "courts": "Basketball Half Court #1"
      }
    },
    {
      "type": "Feature",
      "geometry": {
        "type": "Point",
        "coordinates": [
          -122.2909501,
          47.6116301
        ]
      },
      "properties": {
        "name": "Madrona Playground",
        "formatted_address": "3211 E Spring St, Seattle, WA 98122, USA",
        "courts": "Basketball Full Court #1\nBasketball Half Court #1"
      }
    },
    {
      "type": "Feature",
      "geometry": {
        "type": "Point",
        "coordinates": [
          -122.3174646,
          47.5599737
        ]
      },
      "properties": {
        "name": "Maple Wood Playfield",
        "formatted_address": "4801 Corson Ave S, Seattle, WA 98108, USA",
        "courts": "Basketball Half Court #1"
      }
    },
    {
      "type": "Feature",
      "geometry": {
        "type": "Point",
        "coordinates": [
          -122.3311571,
          47.6641431
        ]
      },
      "properties": {
        "name": "Meridian Playground",
        "formatted_address": "4649 Sunnyside Ave N, Seattle, WA 98103, USA",
        "courts": "Basketball Half Court #1\nBasketball Half Court #2"
      }
    },
    {
      "type": "Feature",
      "geometry": {
        "type": "Point",
        "coordinates": [
          -122.3072207,
          47.6216739
        ]
      },
      "properties": {
        "name": "Miller Playfield",
        "formatted_address": "330 19th Ave E, Seattle, WA 98112, USA",
        "courts": "Basketball Full Court #1"
      }
    },
    {
      "type": "Feature",
      "geometry": {
        "type": "Point",
        "coordinates": [
          -122.2780422,
          47.5370443
        ]
      },
      "properties": {
        "name": "Othello Playground",
        "formatted_address": "4351 S Othello St, Seattle, WA 98118, USA",
        "courts": "Basketball Full Court #1\nBasketball Full Court #2\nBasketball Half Court #1\nBasketball Half Court #2"
      }
    },
    {
      "type": "Feature",
      "geometry": {
        "type": "Point",
        "coordinates": [
          -122.3139632,
          47.7160767
        ]
      },
      "properties": {
        "name": "Pinehurst Playground",
        "formatted_address": "12029 14th Ave NE, Seattle, WA 98125, USA",
        "courts": "Basketball Half Court #1"
      }
    },
    {
      "type": "Feature",
      "geometry": {
        "type": "Point",
        "coordinates": [
          -122.2967299,
          47.6051389
        ]
      },
      "properties": {
        "name": "Powell Barnett Park",
        "formatted_address": "352 Martin Luther King Jr Way, Seattle, WA 98122, USA",
        "courts": "Basketball Full Court #1"
      }
    },
    {
      "type": "Feature",
      "geometry": {
        "type": "Point",
        "coordinates": [
          -122.3075905,
          47.6000054
        ]
      },
      "properties": {
        "name": "Pratt Park",
        "formatted_address": "1800 S Main St, Seattle, WA 98144, USA",
        "courts": "Basketball Full Court #1\nBasketball Half Court #1\nBasketball Half Court #2\nBasketball Half Court #3\nBasketball Half Court #4"
      }
    },
    {
      "type": "Feature",
      "geometry": {
        "type": "Point",
        "coordinates": [
          -122.301137,
          47.6226705
        ]
      },
      "properties": {
        "name": "Prentis I. Frazier Park",
        "formatted_address": "401 24th Ave E, Seattle, WA 98112, USA",
        "courts": "Basketball Half Court #1"
      }
    },
    {
      "type": "Feature",
      "geometry": {
        "type": "Point",
        "coordinates": [
          -122.2869688,
          47.5607388
        ]
      },
      "properties": {
        "name": "Rainier Playfield",
        "formatted_address": "3700 S Alaska St, Seattle, WA 98118, USA",
        "courts": "Basketball Full Court #1"
      }
    },
    {
      "type": "Feature",
      "geometry": {
        "type": "Point",
        "coordinates": [
          -122.3038313,
          47.6760055
        ]
      },
      "properties": {
        "name": "Ravenna-Eckstein Park",
        "formatted_address": "6535 Ravenna Avenue Northeast, Seattle, WA 98115, USA",
        "courts": "Basketball Full Court #1"
      }
    },
    {
      "type": "Feature",
      "geometry": {
        "type": "Point",
        "coordinates": [
          -122.3504198,
          47.5379553
        ]
      },
      "properties": {
        "name": "Riverview Playfield",
        "formatted_address": "7226 12th Avenue Southwest, Seattle, WA 98106, USA",
        "courts": "Basketball Full Court #1"
      }
    },
    {
      "type": "Feature",
      "geometry": {
        "type": "Point",
        "coordinates": [
          -122.320064,
          47.643204
        ]
      },
      "properties": {
        "name": "Roanoke Park",
        "formatted_address": "950 E Roanoke St, Seattle, WA 98102, USA",
        "courts": "Basketball Half Court #1"
      }
    },
    {
      "type": "Feature",
      "geometry": {
        "type": "Point",
        "coordinates": [
          -122.3618765,
          47.6592772
        ]
      },
      "properties": {
        "name": "Ross Playground",
        "formatted_address": "4320 4th Avenue Northwest, Seattle, WA 98107, USA",
        "courts": "Basketball Half Court #1"
      }
    },
    {
      "type": "Feature",
      "geometry": {
        "type": "Point",
        "coordinates": [
          -122.3584934,
          47.6959529
        ]
      },
      "properties": {
        "name": "Sandel Playground",
        "formatted_address": "9053 1st Ave NW, Seattle, WA 98117, USA",
        "courts": "Basketball Full Court #1"
      }
    },
    {
      "type": "Feature",
      "geometry": {
        "type": "Point",
        "coordinates": [
          -122.2938412,
          47.5374797
        ]
      },
      "properties": {
        "name": "Van Asselt Playground",
        "formatted_address": "7200 Beacon Ave S, Seattle, WA 98108, USA",
        "courts": "Basketball Full Court #1"
      }
    },
    {
      "type": "Feature",
      "geometry": {
        "type": "Point",
        "coordinates": [
          -122.3086856,
          47.705851
        ]
      },
      "properties": {
        "name": "Victory Heights Playground",
        "formatted_address": "1737 Northeast 106th Street, Seattle, WA 98125, USA",
        "courts": "basketball court (half)"
      }
    }
  ]
}
